{
"type": "FeatureCollection",
"name": "cities",
"crs": { "type": "name", "properties": { "name": "urn:ogc:def:crs:OGC:1.3:CRS84" } },
"features": [
{ "type": "Feature", "properties": { "lat": 55.6783, "lng": 12.5585, "pop": 1146845, "name": "Copenhagen" }, "geometry": { "type": "Point", "coordinates": [ 12.5585, 55.6783 ] } },
{ "type": "Feature", "properties": { "lat": 36.3131, "lng": 59.5757, "pop": 2585297, "name": "Mashhad" }, "geometry": { "type": "Point", "coordinates": [ 59.5757, 36.3131 ] } },
{ "type": "Feature", "properties": { "lat": 10.8513, "lng": 106.707, "pop": 7250029, "name": "Ho Chi Minh City" }, "geometry": { "type": "Point", "coordinates": [ 106.707, 10.8513 ] } },
{ "type": "Feature", "properties": { "lat": -25.8633, "lng": 32.5557, "pop": 2066412, "name": "Maputo" }, "geometry": { "type": "Point", "coordinates": [ 32.5557, -25.8633 ] } },
{ "type": "Feature", "properties": { "lat": 9.94005, "lng": -84.0742, "pop": 1115157, "name": "San Jose" }, "geometry": { "type": "Point", "coordinates": [ -84.0742, 9.94005 ] } },
{ "type": "Feature", "properties": { "lat": 1.35215, "lng": 103.835, "pop": 5335379, "name": "Singapore" }, "geometry": { "type": "Point", "coordinates": [ 103.835, 1.35215 ] } },
{ "type": "Feature", "properties": { "lat": 18.0814, "lng": -15.9715, "pop": 1173484, "name": "Nouakchott" }, "geometry": { "type": "Point", "coordinates": [ -15.9715, 18.0814 ] } },
{ "type": "Feature", "properties": { "lat": 26.5646, "lng": 106.708, "pop": 2040019, "name": "Guiyang" }, "geometry": { "type": "Point", "coordinates": [ 106.708, 26.5646 ] } },
{ "type": "Feature", "properties": { "lat": 45.5086, "lng": 9.18371, "pop": 1867192, "name": "Milan" }, "geometry": { "type": "Point", "coordinates": [ 9.18371, 45.5086 ] } },
{ "type": "Feature", "properties": { "lat": 19.1424, "lng": 72.899, "pop": 16847859, "name": "Mumbai" }, "geometry": { "type": "Point", "coordinates": [ 72.899, 19.1424 ] } },
{ "type": "Feature", "properties": { "lat": 15.6133, "lng": 32.5088, "pop": 5201868, "name": "Khartoum" }, "geometry": { "type": "Point", "coordinates": [ 32.5088, 15.6133 ] } },
{ "type": "Feature", "properties": { "lat": 40.4096, "lng": 49.868, "pop": 1500412, "name": "Baku" }, "geometry": { "type": "Point", "coordinates": [ 49.868, 40.4096 ] } },
{ "type": "Feature", "properties": { "lat": -34.6834, "lng": -58.4753, "pop": 10708578, "name": "Buenos Aires" }, "geometry": { "type": "Point", "coordinates": [ -58.4753, -34.6834 ] } },
{ "type": "Feature", "properties": { "lat": 22.813, "lng": 108.308, "pop": 2234793, "name": "Nanning" }, "geometry": { "type": "Point", "coordinates": [ 108.308, 22.813 ] } },
{ "type": "Feature", "properties": { "lat": 18.5411, "lng": 73.8686, "pop": 5698518, "name": "Pune" }, "geometry": { "type": "Point", "coordinates": [ 73.8686, 18.5411 ] } },
{ "type": "Feature", "properties": { "lat": 10.9488, "lng": -74.7968, "pop": 1841228, "name": "Barranquilla" }, "geometry": { "type": "Point", "coordinates": [ -74.7968, 10.9488 ] } },
{ "type": "Feature", "properties": { "lat": 28.6044, "lng": 77.1997, "pop": 25517665, "name": "Delhi" }, "geometry": { "type": "Point", "coordinates": [ 77.1997, 28.6044 ] } },
{ "type": "Feature", "properties": { "lat": 21.14, "lng": 79.0589, "pop": 2576577, "name": "Nagpur" }, "geometry": { "type": "Point", "coordinates": [ 79.0589, 21.14 ] } },
{ "type": "Feature", "properties": { "lat": -33.4857, "lng": -70.6567, "pop": 5737466, "name": "Santiago" }, "geometry": { "type": "Point", "coordinates": [ -70.6567, -33.4857 ] } },
{ "type": "Feature", "properties": { "lat": 25.4388, "lng": 81.8111, "pop": 1648625, "name": "Allahabad" }, "geometry": { "type": "Point", "coordinates": [ 81.8111, 25.4388 ] } },
{ "type": "Feature", "properties": { "lat": 9.92176, "lng": 78.1085, "pop": 1512548, "name": "Madurai" }, "geometry": { "type": "Point", "coordinates": [ 78.1085, 9.92176 ] } },
{ "type": "Feature", "properties": { "lat": 40.6513, "lng": 109.848, "pop": 1310890, "name": "Baotou" }, "geometry": { "type": "Point", "coordinates": [ 109.848, 40.6513 ] } },
{ "type": "Feature", "properties": { "lat": 3.11368, "lng": 101.663, "pop": 4831734, "name": "Kuala Lumpur" }, "geometry": { "type": "Point", "coordinates": [ 101.663, 3.11368 ] } },
{ "type": "Feature", "properties": { "lat": -34.8652, "lng": -56.1714, "pop": 1013113, "name": "Montevideo" }, "geometry": { "type": "Point", "coordinates": [ -56.1714, -34.8652 ] } },
{ "type": "Feature", "properties": { "lat": 36.6195, "lng": 101.772, "pop": 1015203, "name": "Xining" }, "geometry": { "type": "Point", "coordinates": [ 101.772, 36.6195 ] } },
{ "type": "Feature", "properties": { "lat": -2.15646, "lng": -79.9176, "pop": 3688996, "name": "Guayaquil" }, "geometry": { "type": "Point", "coordinates": [ -79.9176, -2.15646 ] } },
{ "type": "Feature", "properties": { "lat": -20.2898, "lng": -40.3194, "pop": 1206722, "name": "Vitoria" }, "geometry": { "type": "Point", "coordinates": [ -40.3194, -20.2898 ] } },
{ "type": "Feature", "properties": { "lat": 20.6416, "lng": -103.354, "pop": 3982725, "name": "Guadalajara" }, "geometry": { "type": "Point", "coordinates": [ -103.354, 20.6416 ] } },
{ "type": "Feature", "properties": { "lat": 36.6526, "lng": 116.997, "pop": 2575863, "name": "Jinan" }, "geometry": { "type": "Point", "coordinates": [ 116.997, 36.6526 ] } },
{ "type": "Feature", "properties": { "lat": -6.12065, "lng": 23.5928, "pop": 3186976, "name": "Mbuji-Mayi" }, "geometry": { "type": "Point", "coordinates": [ 23.5928, -6.12065 ] } },
{ "type": "Feature", "properties": { "lat": 0.497731, "lng": 29.4643, "pop": 1544123, "name": "Beni" }, "geometry": { "type": "Point", "coordinates": [ 29.4643, 0.497731 ] } },
{ "type": "Feature", "properties": { "lat": 6.07623, "lng": 6.88523, "pop": 1414847, "name": "Onitsha" }, "geometry": { "type": "Point", "coordinates": [ 6.88523, 6.07623 ] } },
{ "type": "Feature", "properties": { "lat": 34.2336, "lng": 108.944, "pop": 4229098, "name": "Xi'an" }, "geometry": { "type": "Point", "coordinates": [ 108.944, 34.2336 ] } },
{ "type": "Feature", "properties": { "lat": -12.9292, "lng": -38.4412, "pop": 2839166, "name": "Salvador da Bahia" }, "geometry": { "type": "Point", "coordinates": [ -38.4412, -12.9292 ] } },
{ "type": "Feature", "properties": { "lat": 32.6682, "lng": 51.6489, "pop": 1641197, "name": "Isfahan" }, "geometry": { "type": "Point", "coordinates": [ 51.6489, 32.6682 ] } },
{ "type": "Feature", "properties": { "lat": 25.2508, "lng": 51.4691, "pop": 1365360, "name": "Doha" }, "geometry": { "type": "Point", "coordinates": [ 51.4691, 25.2508 ] } },
{ "type": "Feature", "properties": { "lat": 51.5109, "lng": -0.12912, "pop": 7704754, "name": "London" }, "geometry": { "type": "Point", "coordinates": [ -0.12912, 51.5109 ] } },
{ "type": "Feature", "properties": { "lat": 32.5031, "lng": -116.967, "pop": 1230031, "name": "Tijuana" }, "geometry": { "type": "Point", "coordinates": [ -116.967, 32.5031 ] } },
{ "type": "Feature", "properties": { "lat": -4.24618, "lng": 15.271, "pop": 1607143, "name": "Brazzaville" }, "geometry": { "type": "Point", "coordinates": [ 15.271, -4.24618 ] } },
{ "type": "Feature", "properties": { "lat": 23.0769, "lng": -82.3559, "pop": 1147564, "name": "Havana" }, "geometry": { "type": "Point", "coordinates": [ -82.3559, 23.0769 ] } },
{ "type": "Feature", "properties": { "lat": -4.39233, "lng": 15.3293, "pop": 5339553, "name": "Kinshasa" }, "geometry": { "type": "Point", "coordinates": [ 15.3293, -4.39233 ] } },
{ "type": "Feature", "properties": { "lat": 33.3379, "lng": 44.4003, "pop": 3823771, "name": "Baghdad" }, "geometry": { "type": "Point", "coordinates": [ 44.4003, 33.3379 ] } },
{ "type": "Feature", "properties": { "lat": 23.3827, "lng": 85.3291, "pop": 1006337, "name": "Ranchi" }, "geometry": { "type": "Point", "coordinates": [ 85.3291, 23.3827 ] } },
{ "type": "Feature", "properties": { "lat": 34.6918, "lng": 135.463, "pop": 9505885, "name": "Osaka" }, "geometry": { "type": "Point", "coordinates": [ 135.463, 34.6918 ] } },
{ "type": "Feature", "properties": { "lat": -15.8523, "lng": -48.0886, "pop": 1148598, "name": "Brasilia" }, "geometry": { "type": "Point", "coordinates": [ -48.0886, -15.8523 ] } },
{ "type": "Feature", "properties": { "lat": 23.3127, "lng": 116.263, "pop": 1472473, "name": "Puning" }, "geometry": { "type": "Point", "coordinates": [ 116.263, 23.3127 ] } },
{ "type": "Feature", "properties": { "lat": 31.5697, "lng": 120.291, "pop": 2186842, "name": "Wuxi" }, "geometry": { "type": "Point", "coordinates": [ 120.291, 31.5697 ] } },
{ "type": "Feature", "properties": { "lat": 34.6706, "lng": 112.392, "pop": 1109561, "name": "Luoyang" }, "geometry": { "type": "Point", "coordinates": [ 112.392, 34.6706 ] } },
{ "type": "Feature", "properties": { "lat": 6.55684, "lng": 3.2942, "pop": 10899759, "name": "Lagos" }, "geometry": { "type": "Point", "coordinates": [ 3.2942, 6.55684 ] } },
{ "type": "Feature", "properties": { "lat": 6.19963, "lng": 1.2027, "pop": 2334757, "name": "Lome" }, "geometry": { "type": "Point", "coordinates": [ 1.2027, 6.19963 ] } },
{ "type": "Feature", "properties": { "lat": 24.9064, "lng": 67.0715, "pop": 13840989, "name": "Karachi" }, "geometry": { "type": "Point", "coordinates": [ 67.0715, 24.9064 ] } },
{ "type": "Feature", "properties": { "lat": 37.9293, "lng": 58.3886, "pop": 1426131, "name": "Asgabat" }, "geometry": { "type": "Point", "coordinates": [ 58.3886, 37.9293 ] } },
{ "type": "Feature", "properties": { "lat": 35.1662, "lng": 126.864, "pop": 1064922, "name": "Gwangju" }, "geometry": { "type": "Point", "coordinates": [ 126.864, 35.1662 ] } },
{ "type": "Feature", "properties": { "lat": 6.30896, "lng": -10.7185, "pop": 1435793, "name": "Monrovia" }, "geometry": { "type": "Point", "coordinates": [ -10.7185, 6.30896 ] } },
{ "type": "Feature", "properties": { "lat": -0.208568, "lng": -78.5093, "pop": 1861229, "name": "Quito" }, "geometry": { "type": "Point", "coordinates": [ -78.5093, -0.208568 ] } },
{ "type": "Feature", "properties": { "lat": 33.5848, "lng": -7.55036, "pop": 3344456, "name": "Casablanca" }, "geometry": { "type": "Point", "coordinates": [ -7.55036, 33.5848 ] } },
{ "type": "Feature", "properties": { "lat": 27.6974, "lng": 85.3333, "pop": 2524383, "name": "Kathmandu" }, "geometry": { "type": "Point", "coordinates": [ 85.3333, 27.6974 ] } },
{ "type": "Feature", "properties": { "lat": 22.9992, "lng": 113.238, "pop": 13947868, "name": "Guangzhou" }, "geometry": { "type": "Point", "coordinates": [ 113.238, 22.9992 ] } },
{ "type": "Feature", "properties": { "lat": 59.9302, "lng": 30.3396, "pop": 4071781, "name": "Saint Petersburg" }, "geometry": { "type": "Point", "coordinates": [ 30.3396, 59.9302 ] } },
{ "type": "Feature", "properties": { "lat": 8.45699, "lng": -13.217, "pop": 1321241, "name": "Freetown" }, "geometry": { "type": "Point", "coordinates": [ -13.217, 8.45699 ] } },
{ "type": "Feature", "properties": { "lat": 21.1672, "lng": 72.7225, "pop": 5842435, "name": "Surat" }, "geometry": { "type": "Point", "coordinates": [ 72.7225, 21.1672 ] } },
{ "type": "Feature", "properties": { "lat": 28.8434, "lng": 78.734, "pop": 1085336, "name": "Moradabad" }, "geometry": { "type": "Point", "coordinates": [ 78.734, 28.8434 ] } },
{ "type": "Feature", "properties": { "lat": 42.8724, "lng": 74.5879, "pop": 1057008, "name": "Bishkek" }, "geometry": { "type": "Point", "coordinates": [ 74.5879, 42.8724 ] } },
{ "type": "Feature", "properties": { "lat": 11.5459, "lng": 104.891, "pop": 1666251, "name": "Phnom Penh" }, "geometry": { "type": "Point", "coordinates": [ 104.891, 11.5459 ] } },
{ "type": "Feature", "properties": { "lat": -2.98878, "lng": 104.757, "pop": 1142867, "name": "Palembang" }, "geometry": { "type": "Point", "coordinates": [ 104.757, -2.98878 ] } },
{ "type": "Feature", "properties": { "lat": 55.7369, "lng": 37.6095, "pop": 11586759, "name": "Moscow" }, "geometry": { "type": "Point", "coordinates": [ 37.6095, 55.7369 ] } },
{ "type": "Feature", "properties": { "lat": 40.8234, "lng": 111.662, "pop": 1686488, "name": "Hohhot" }, "geometry": { "type": "Point", "coordinates": [ 111.662, 40.8234 ] } },
{ "type": "Feature", "properties": { "lat": 36.8218, "lng": 10.1755, "pop": 1646418, "name": "Tunis" }, "geometry": { "type": "Point", "coordinates": [ 10.1755, 36.8218 ] } },
{ "type": "Feature", "properties": { "lat": 33.878, "lng": 35.5432, "pop": 2712065, "name": "Beirut" }, "geometry": { "type": "Point", "coordinates": [ 35.5432, 33.878 ] } },
{ "type": "Feature", "properties": { "lat": 43.7176, "lng": -79.3659, "pop": 1595018, "name": "Toronto" }, "geometry": { "type": "Point", "coordinates": [ -79.3659, 43.7176 ] } },
{ "type": "Feature", "properties": { "lat": 34.0274, "lng": -5.0052, "pop": 1107633, "name": "Fez" }, "geometry": { "type": "Point", "coordinates": [ -5.0052, 34.0274 ] } },
{ "type": "Feature", "properties": { "lat": 23.2431, "lng": 77.4299, "pop": 1300496, "name": "Bhopal" }, "geometry": { "type": "Point", "coordinates": [ 77.4299, 23.2431 ] } },
{ "type": "Feature", "properties": { "lat": 9.00604, "lng": 38.7583, "pop": 3411638, "name": "Addis Ababa" }, "geometry": { "type": "Point", "coordinates": [ 38.7583, 9.00604 ] } },
{ "type": "Feature", "properties": { "lat": 29.5452, "lng": 106.508, "pop": 3972131, "name": "Chongqing" }, "geometry": { "type": "Point", "coordinates": [ 106.508, 29.5452 ] } },
{ "type": "Feature", "properties": { "lat": 35.1588, "lng": 129.06, "pop": 3277044, "name": "Busan" }, "geometry": { "type": "Point", "coordinates": [ 129.06, 35.1588 ] } },
{ "type": "Feature", "properties": { "lat": 41.8003, "lng": 123.382, "pop": 4911748, "name": "Shenyang" }, "geometry": { "type": "Point", "coordinates": [ 123.382, 41.8003 ] } },
{ "type": "Feature", "properties": { "lat": 28.3766, "lng": 79.4272, "pop": 1102308, "name": "Bareilly" }, "geometry": { "type": "Point", "coordinates": [ 79.4272, 28.3766 ] } },
{ "type": "Feature", "properties": { "lat": 48.2058, "lng": 16.3705, "pop": 1603466, "name": "Vienna" }, "geometry": { "type": "Point", "coordinates": [ 16.3705, 48.2058 ] } },
{ "type": "Feature", "properties": { "lat": -1.38273, "lng": -48.4327, "pop": 1890954, "name": "Belem" }, "geometry": { "type": "Point", "coordinates": [ -48.4327, -1.38273 ] } },
{ "type": "Feature", "properties": { "lat": 40.1985, "lng": 29.0763, "pop": 1211535, "name": "Bursa" }, "geometry": { "type": "Point", "coordinates": [ 29.0763, 40.1985 ] } },
{ "type": "Feature", "properties": { "lat": 22.9394, "lng": 88.3864, "pop": 1832995, "name": "Bhatpara" }, "geometry": { "type": "Point", "coordinates": [ 88.3864, 22.9394 ] } },
{ "type": "Feature", "properties": { "lat": 45.74, "lng": 126.656, "pop": 3505782, "name": "Harbin" }, "geometry": { "type": "Point", "coordinates": [ 126.656, 45.74 ] } },
{ "type": "Feature", "properties": { "lat": 21.1266, "lng": -101.666, "pop": 1355343, "name": "Leon" }, "geometry": { "type": "Point", "coordinates": [ -101.666, 21.1266 ] } },
{ "type": "Feature", "properties": { "lat": 33.9994, "lng": 71.5501, "pop": 1814301, "name": "Peshawar" }, "geometry": { "type": "Point", "coordinates": [ 71.5501, 33.9994 ] } },
{ "type": "Feature", "properties": { "lat": 25.7168, "lng": 32.6558, "pop": 2835075, "name": "Luxor" }, "geometry": { "type": "Point", "coordinates": [ 32.6558, 25.7168 ] } },
{ "type": "Feature", "properties": { "lat": 41.18, "lng": 69.2619, "pop": 2403726, "name": "Tashkent" }, "geometry": { "type": "Point", "coordinates": [ 69.2619, 41.18 ] } },
{ "type": "Feature", "properties": { "lat": -6.30209, "lng": 106.815, "pop": 28685193, "name": "Jakarta" }, "geometry": { "type": "Point", "coordinates": [ 106.815, -6.30209 ] } },
{ "type": "Feature", "properties": { "lat": 40.9051, "lng": 14.2501, "pop": 1441868, "name": "Naples" }, "geometry": { "type": "Point", "coordinates": [ 14.2501, 40.9051 ] } },
{ "type": "Feature", "properties": { "lat": 31.3103, "lng": 48.67, "pop": 1046317, "name": "Ahwaz" }, "geometry": { "type": "Point", "coordinates": [ 48.67, 31.3103 ] } },
{ "type": "Feature", "properties": { "lat": 21.9433, "lng": 96.0939, "pop": 1409526, "name": "Mandalay" }, "geometry": { "type": "Point", "coordinates": [ 96.0939, 21.9433 ] } },
{ "type": "Feature", "properties": { "lat": 23.6953, "lng": 86.9003, "pop": 2343898, "name": "Asansol" }, "geometry": { "type": "Point", "coordinates": [ 86.9003, 23.6953 ] } },
{ "type": "Feature", "properties": { "lat": 45.5306, "lng": -73.6141, "pop": 1348473, "name": "Montreal" }, "geometry": { "type": "Point", "coordinates": [ -73.6141, 45.5306 ] } },
{ "type": "Feature", "properties": { "lat": 39.9517, "lng": 32.8747, "pop": 2044569, "name": "Ankara" }, "geometry": { "type": "Point", "coordinates": [ 32.8747, 39.9517 ] } },
{ "type": "Feature", "properties": { "lat": 40.0624, "lng": 113.254, "pop": 1279177, "name": "Datong" }, "geometry": { "type": "Point", "coordinates": [ 113.254, 40.0624 ] } },
{ "type": "Feature", "properties": { "lat": 30.2975, "lng": 120.176, "pop": 3503553, "name": "Hangzhou" }, "geometry": { "type": "Point", "coordinates": [ 120.176, 30.2975 ] } },
{ "type": "Feature", "properties": { "lat": 35.6577, "lng": 139.651, "pop": 27291599, "name": "Tokyo" }, "geometry": { "type": "Point", "coordinates": [ 139.651, 35.6577 ] } },
{ "type": "Feature", "properties": { "lat": 49.9835, "lng": 36.2629, "pop": 1147047, "name": "Kharkov" }, "geometry": { "type": "Point", "coordinates": [ 36.2629, 49.9835 ] } },
{ "type": "Feature", "properties": { "lat": -22.8989, "lng": -43.5549, "pop": 1385847, "name": "Campo Grande" }, "geometry": { "type": "Point", "coordinates": [ -43.5549, -22.8989 ] } },
{ "type": "Feature", "properties": { "lat": 36.1116, "lng": 120.382, "pop": 2427745, "name": "Qingdao" }, "geometry": { "type": "Point", "coordinates": [ 120.382, 36.1116 ] } },
{ "type": "Feature", "properties": { "lat": -8.90372, "lng": 13.3261, "pop": 13376577, "name": "Luanda" }, "geometry": { "type": "Point", "coordinates": [ 13.3261, -8.90372 ] } },
{ "type": "Feature", "properties": { "lat": -5.90254, "lng": 22.4215, "pop": 1066129, "name": "Kananga" }, "geometry": { "type": "Point", "coordinates": [ 22.4215, -5.90254 ] } },
{ "type": "Feature", "properties": { "lat": 31.7904, "lng": 35.2011, "pop": 1141619, "name": "Jerusalem" }, "geometry": { "type": "Point", "coordinates": [ 35.2011, 31.7904 ] } },
{ "type": "Feature", "properties": { "lat": 33.5773, "lng": 130.401, "pop": 1341500, "name": "Fukuoka" }, "geometry": { "type": "Point", "coordinates": [ 130.401, 33.5773 ] } },
{ "type": "Feature", "properties": { "lat": 3.81448, "lng": 11.5167, "pop": 3880752, "name": "Yaounde" }, "geometry": { "type": "Point", "coordinates": [ 11.5167, 3.81448 ] } },
{ "type": "Feature", "properties": { "lat": 28.6875, "lng": 115.877, "pop": 2435486, "name": "Nanchang" }, "geometry": { "type": "Point", "coordinates": [ 115.877, 28.6875 ] } },
{ "type": "Feature", "properties": { "lat": 38.0388, "lng": 114.493, "pop": 2423166, "name": "Shijiazhuang" }, "geometry": { "type": "Point", "coordinates": [ 114.493, 38.0388 ] } },
{ "type": "Feature", "properties": { "lat": 28.1863, "lng": 112.986, "pop": 2618133, "name": "Changsha" }, "geometry": { "type": "Point", "coordinates": [ 112.986, 28.1863 ] } },
{ "type": "Feature", "properties": { "lat": 36.3468, "lng": 127.387, "pop": 1155065, "name": "Daejeon" }, "geometry": { "type": "Point", "coordinates": [ 127.387, 36.3468 ] } },
{ "type": "Feature", "properties": { "lat": 25.7186, "lng": -100.261, "pop": 3497485, "name": "Monterrey" }, "geometry": { "type": "Point", "coordinates": [ -100.261, 25.7186 ] } },
{ "type": "Feature", "properties": { "lat": 22.8126, "lng": 113.924, "pop": 17857508, "name": "Dongguan-Shenzhen" }, "geometry": { "type": "Point", "coordinates": [ 113.924, 22.8126 ] } },
{ "type": "Feature", "properties": { "lat": 30.1908, "lng": 71.4654, "pop": 2275456, "name": "Multan" }, "geometry": { "type": "Point", "coordinates": [ 71.4654, 30.1908 ] } },
{ "type": "Feature", "properties": { "lat": 29.9516, "lng": 77.5829, "pop": 1016304, "name": "Saharanpur" }, "geometry": { "type": "Point", "coordinates": [ 77.5829, 29.9516 ] } },
{ "type": "Feature", "properties": { "lat": 50.445, "lng": 30.5153, "pop": 2249718, "name": "Kiev" }, "geometry": { "type": "Point", "coordinates": [ 30.5153, 50.445 ] } },
{ "type": "Feature", "properties": { "lat": 30.5617, "lng": 47.769, "pop": 1249470, "name": "Basrah" }, "geometry": { "type": "Point", "coordinates": [ 47.769, 30.5617 ] } },
{ "type": "Feature", "properties": { "lat": 34.7669, "lng": 113.66, "pop": 3761748, "name": "Zhengzhou" }, "geometry": { "type": "Point", "coordinates": [ 113.66, 34.7669 ] } },
{ "type": "Feature", "properties": { "lat": 19.4546, "lng": -99.1022, "pop": 16584670, "name": "Mexico City" }, "geometry": { "type": "Point", "coordinates": [ -99.1022, 19.4546 ] } },
{ "type": "Feature", "properties": { "lat": -25.4631, "lng": -49.253, "pop": 1603010, "name": "Curitiba" }, "geometry": { "type": "Point", "coordinates": [ -49.253, -25.4631 ] } },
{ "type": "Feature", "properties": { "lat": 39.029, "lng": 125.743, "pop": 2213080, "name": "Pyongyang" }, "geometry": { "type": "Point", "coordinates": [ 125.743, 39.029 ] } },
{ "type": "Feature", "properties": { "lat": 31.7661, "lng": 119.945, "pop": 1411298, "name": "Changzhou" }, "geometry": { "type": "Point", "coordinates": [ 119.945, 31.7661 ] } },
{ "type": "Feature", "properties": { "lat": -18.8854, "lng": 47.5288, "pop": 1951057, "name": "Antananarivo" }, "geometry": { "type": "Point", "coordinates": [ 47.5288, -18.8854 ] } },
{ "type": "Feature", "properties": { "lat": -25.3227, "lng": -57.5512, "pop": 1621555, "name": "Asuncion" }, "geometry": { "type": "Point", "coordinates": [ -57.5512, -25.3227 ] } },
{ "type": "Feature", "properties": { "lat": 31.6239, "lng": -8.01608, "pop": 1195239, "name": "Marrakesh" }, "geometry": { "type": "Point", "coordinates": [ -8.01608, 31.6239 ] } },
{ "type": "Feature", "properties": { "lat": 32.0677, "lng": 34.8193, "pop": 1627179, "name": "Tel Aviv" }, "geometry": { "type": "Point", "coordinates": [ 34.8193, 32.0677 ] } },
{ "type": "Feature", "properties": { "lat": 14.6022, "lng": -90.5508, "pop": 1709487, "name": "Guatemala City" }, "geometry": { "type": "Point", "coordinates": [ -90.5508, 14.6022 ] } },
{ "type": "Feature", "properties": { "lat": -15.4004, "lng": 28.2863, "pop": 2412938, "name": "Lusaka" }, "geometry": { "type": "Point", "coordinates": [ 28.2863, -15.4004 ] } },
{ "type": "Feature", "properties": { "lat": -26.2477, "lng": 27.8736, "pop": 1190019, "name": "Johannesburg" }, "geometry": { "type": "Point", "coordinates": [ 27.8736, -26.2477 ] } },
{ "type": "Feature", "properties": { "lat": 41.3983, "lng": 2.1547, "pop": 2395199, "name": "Barcelona" }, "geometry": { "type": "Point", "coordinates": [ 2.1547, 41.3983 ] } },
{ "type": "Feature", "properties": { "lat": 36.7351, "lng": 3.08052, "pop": 2730876, "name": "Algiers" }, "geometry": { "type": "Point", "coordinates": [ 3.08052, 36.7351 ] } },
{ "type": "Feature", "properties": { "lat": 4.64153, "lng": -74.1173, "pop": 8347832, "name": "Bogota" }, "geometry": { "type": "Point", "coordinates": [ -74.1173, 4.64153 ] } },
{ "type": "Feature", "properties": { "lat": 30.06, "lng": 31.2523, "pop": 20249413, "name": "Cairo" }, "geometry": { "type": "Point", "coordinates": [ 31.2523, 30.06 ] } },
{ "type": "Feature", "properties": { "lat": 6.37853, "lng": 2.40193, "pop": 1099923, "name": "Cotonou" }, "geometry": { "type": "Point", "coordinates": [ 2.40193, 6.37853 ] } },
{ "type": "Feature", "properties": { "lat": 22.3807, "lng": 91.8116, "pop": 3617017, "name": "Chittagong" }, "geometry": { "type": "Point", "coordinates": [ 91.8116, 22.3807 ] } },
{ "type": "Feature", "properties": { "lat": 31.4857, "lng": 74.3167, "pop": 9280035, "name": "Lahore" }, "geometry": { "type": "Point", "coordinates": [ 74.3167, 31.4857 ] } },
{ "type": "Feature", "properties": { "lat": -6.84642, "lng": 39.2322, "pop": 3310833, "name": "Dar es Salaam" }, "geometry": { "type": "Point", "coordinates": [ 39.2322, -6.84642 ] } },
{ "type": "Feature", "properties": { "lat": 31.2076, "lng": 121.442, "pop": 18799640, "name": "Shanghai" }, "geometry": { "type": "Point", "coordinates": [ 121.442, 31.2076 ] } },
{ "type": "Feature", "properties": { "lat": 24.6913, "lng": 46.7308, "pop": 2872523, "name": "Riyadh" }, "geometry": { "type": "Point", "coordinates": [ 46.7308, 24.6913 ] } },
{ "type": "Feature", "properties": { "lat": 31.0518, "lng": 31.4326, "pop": 1007204, "name": "Mansoura" }, "geometry": { "type": "Point", "coordinates": [ 31.4326, 31.0518 ] } },
{ "type": "Feature", "properties": { "lat": 3.60824, "lng": 98.6488, "pop": 2724541, "name": "Medan" }, "geometry": { "type": "Point", "coordinates": [ 98.6488, 3.60824 ] } },
{ "type": "Feature", "properties": { "lat": 12.3684, "lng": -1.53895, "pop": 3110466, "name": "Ouagadougou" }, "geometry": { "type": "Point", "coordinates": [ -1.53895, 12.3684 ] } },
{ "type": "Feature", "properties": { "lat": 22.5523, "lng": 88.3435, "pop": 13191948, "name": "Kolkata" }, "geometry": { "type": "Point", "coordinates": [ 88.3435, 22.5523 ] } },
{ "type": "Feature", "properties": { "lat": 34.2628, "lng": 117.16, "pop": 1207325, "name": "Xuzhou" }, "geometry": { "type": "Point", "coordinates": [ 117.16, 34.2628 ] } },
{ "type": "Feature", "properties": { "lat": 13.0364, "lng": 80.1802, "pop": 8983604, "name": "Chennai" }, "geometry": { "type": "Point", "coordinates": [ 80.1802, 13.0364 ] } },
{ "type": "Feature", "properties": { "lat": 22.691, "lng": 75.8629, "pop": 2315269, "name": "Indore" }, "geometry": { "type": "Point", "coordinates": [ 75.8629, 22.691 ] } },
{ "type": "Feature", "properties": { "lat": -19.8991, "lng": -43.996, "pop": 3637067, "name": "Belo Horizonte" }, "geometry": { "type": "Point", "coordinates": [ -43.996, -19.8991 ] } },
{ "type": "Feature", "properties": { "lat": 23.7726, "lng": 86.4212, "pop": 1169716, "name": "Dhanbad" }, "geometry": { "type": "Point", "coordinates": [ 86.4212, 23.7726 ] } },
{ "type": "Feature", "properties": { "lat": -5.14383, "lng": 119.46, "pop": 1512877, "name": "Makassar" }, "geometry": { "type": "Point", "coordinates": [ 119.46, -5.14383 ] } },
{ "type": "Feature", "properties": { "lat": 0.325829, "lng": 32.5823, "pop": 3160259, "name": "Kampala" }, "geometry": { "type": "Point", "coordinates": [ 32.5823, 0.325829 ] } },
{ "type": "Feature", "properties": { "lat": 38.4138, "lng": 27.1506, "pop": 2869652, "name": "Izmir" }, "geometry": { "type": "Point", "coordinates": [ 27.1506, 38.4138 ] } },
{ "type": "Feature", "properties": { "lat": 19.9822, "lng": 73.7865, "pop": 1025512, "name": "Nashik" }, "geometry": { "type": "Point", "coordinates": [ 73.7865, 19.9822 ] } },
{ "type": "Feature", "properties": { "lat": -11.6563, "lng": 27.4784, "pop": 2781923, "name": "Lubumbashi" }, "geometry": { "type": "Point", "coordinates": [ 27.4784, -11.6563 ] } },
{ "type": "Feature", "properties": { "lat": 11.9832, "lng": 8.52175, "pop": 4006970, "name": "Kano" }, "geometry": { "type": "Point", "coordinates": [ 8.52175, 11.9832 ] } },
{ "type": "Feature", "properties": { "lat": 41.1114, "lng": 122.989, "pop": 1247032, "name": "Anshan" }, "geometry": { "type": "Point", "coordinates": [ 122.989, 41.1114 ] } },
{ "type": "Feature", "properties": { "lat": 29.6049, "lng": 52.5272, "pop": 1110180, "name": "Shiraz" }, "geometry": { "type": "Point", "coordinates": [ 52.5272, 29.6049 ] } },
{ "type": "Feature", "properties": { "lat": 39.9528, "lng": 32.5907, "pop": 1283649, "name": "Sincan" }, "geometry": { "type": "Point", "coordinates": [ 32.5907, 39.9528 ] } },
{ "type": "Feature", "properties": { "lat": 33.5908, "lng": 73.0625, "pop": 2313095, "name": "Islamabad" }, "geometry": { "type": "Point", "coordinates": [ 73.0625, 33.5908 ] } },
{ "type": "Feature", "properties": { "lat": 37.9878, "lng": 23.731, "pop": 2867516, "name": "Athens" }, "geometry": { "type": "Point", "coordinates": [ 23.731, 37.9878 ] } },
{ "type": "Feature", "properties": { "lat": 24.3151, "lng": 109.386, "pop": 1266228, "name": "Liuzhou" }, "geometry": { "type": "Point", "coordinates": [ 109.386, 24.3151 ] } },
{ "type": "Feature", "properties": { "lat": 30.7129, "lng": 76.7524, "pop": 1327210, "name": "Chandigarh" }, "geometry": { "type": "Point", "coordinates": [ 76.7524, 30.7129 ] } },
{ "type": "Feature", "properties": { "lat": 17.4235, "lng": 78.4785, "pop": 7538711, "name": "Hyderabad" }, "geometry": { "type": "Point", "coordinates": [ 78.4785, 17.4235 ] } },
{ "type": "Feature", "properties": { "lat": 41.8916, "lng": 12.5097, "pop": 1907211, "name": "Roma" }, "geometry": { "type": "Point", "coordinates": [ 12.5097, 41.8916 ] } },
{ "type": "Feature", "properties": { "lat": 6.24414, "lng": -75.579, "pop": 3274828, "name": "Medellin" }, "geometry": { "type": "Point", "coordinates": [ -75.579, 6.24414 ] } },
{ "type": "Feature", "properties": { "lat": 31.2077, "lng": 29.951, "pop": 4604708, "name": "Alexandria" }, "geometry": { "type": "Point", "coordinates": [ 29.951, 31.2077 ] } },
{ "type": "Feature", "properties": { "lat": 16.8639, "lng": 96.1419, "pop": 5075160, "name": "Yangon" }, "geometry": { "type": "Point", "coordinates": [ 96.1419, 16.8639 ] } },
{ "type": "Feature", "properties": { "lat": 43.0705, "lng": 141.364, "pop": 1246041, "name": "Sapporo" }, "geometry": { "type": "Point", "coordinates": [ 141.364, 43.0705 ] } },
{ "type": "Feature", "properties": { "lat": -6.95046, "lng": 107.641, "pop": 5497203, "name": "Bandung" }, "geometry": { "type": "Point", "coordinates": [ 107.641, -6.95046 ] } },
{ "type": "Feature", "properties": { "lat": 7.08193, "lng": 125.584, "pop": 1008312, "name": "Davao" }, "geometry": { "type": "Point", "coordinates": [ 125.584, 7.08193 ] } },
{ "type": "Feature", "properties": { "lat": 35.1529, "lng": 136.929, "pop": 2326546, "name": "Nagoya" }, "geometry": { "type": "Point", "coordinates": [ 136.929, 35.1529 ] } },
{ "type": "Feature", "properties": { "lat": -3.78129, "lng": -38.5594, "pop": 2967863, "name": "Fortaleza" }, "geometry": { "type": "Point", "coordinates": [ -38.5594, -3.78129 ] } },
{ "type": "Feature", "properties": { "lat": 27.173, "lng": 77.9962, "pop": 2084543, "name": "Agra" }, "geometry": { "type": "Point", "coordinates": [ 77.9962, 27.173 ] } },
{ "type": "Feature", "properties": { "lat": 5.36638, "lng": -4.03769, "pop": 4353079, "name": "Abidjan" }, "geometry": { "type": "Point", "coordinates": [ -4.03769, 5.36638 ] } },
{ "type": "Feature", "properties": { "lat": 7.36722, "lng": 3.92268, "pop": 2761323, "name": "Ibadan" }, "geometry": { "type": "Point", "coordinates": [ 3.92268, 7.36722 ] } },
{ "type": "Feature", "properties": { "lat": 32.1376, "lng": 74.1863, "pop": 2287680, "name": "Lahore" }, "geometry": { "type": "Point", "coordinates": [ 74.1863, 32.1376 ] } },
{ "type": "Feature", "properties": { "lat": 53.8905, "lng": 27.5844, "pop": 2203216, "name": "Minsk" }, "geometry": { "type": "Point", "coordinates": [ 27.5844, 53.8905 ] } },
{ "type": "Feature", "properties": { "lat": 40.7351, "lng": -73.9149, "pop": 8032208, "name": "New York" }, "geometry": { "type": "Point", "coordinates": [ -73.9149, 40.7351 ] } },
{ "type": "Feature", "properties": { "lat": 29.8405, "lng": 121.542, "pop": 1432769, "name": "Ningbo" }, "geometry": { "type": "Point", "coordinates": [ 121.542, 29.8405 ] } },
{ "type": "Feature", "properties": { "lat": 10.4758, "lng": -66.8952, "pop": 2508634, "name": "Caracas" }, "geometry": { "type": "Point", "coordinates": [ -66.8952, 10.4758 ] } },
{ "type": "Feature", "properties": { "lat": 25.9008, "lng": -100.146, "pop": 2279397, "name": "General Zuazua" }, "geometry": { "type": "Point", "coordinates": [ -100.146, 25.9008 ] } },
{ "type": "Feature", "properties": { "lat": 48.87, "lng": 2.35571, "pop": 6834162, "name": "Paris" }, "geometry": { "type": "Point", "coordinates": [ 2.35571, 48.87 ] } },
{ "type": "Feature", "properties": { "lat": 35.7092, "lng": 51.2563, "pop": 11184692, "name": "Tehran" }, "geometry": { "type": "Point", "coordinates": [ 51.2563, 35.7092 ] } },
{ "type": "Feature", "properties": { "lat": 26.4494, "lng": 80.3142, "pop": 2557537, "name": "Kampur" }, "geometry": { "type": "Point", "coordinates": [ 80.3142, 26.4494 ] } },
{ "type": "Feature", "properties": { "lat": 13.5229, "lng": 2.12342, "pop": 1001555, "name": "Niamey" }, "geometry": { "type": "Point", "coordinates": [ 2.12342, 13.5229 ] } },
{ "type": "Feature", "properties": { "lat": 35.6925, "lng": -0.600622, "pop": 1148692, "name": "Oran" }, "geometry": { "type": "Point", "coordinates": [ -0.600622, 35.6925 ] } },
{ "type": "Feature", "properties": { "lat": -33.9979, "lng": 18.5955, "pop": 1824398, "name": "Cape Town" }, "geometry": { "type": "Point", "coordinates": [ 18.5955, -33.9979 ] } },
{ "type": "Feature", "properties": { "lat": 3.42781, "lng": -76.5148, "pop": 2224704, "name": "Cali" }, "geometry": { "type": "Point", "coordinates": [ -76.5148, 3.42781 ] } },
{ "type": "Feature", "properties": { "lat": 38.0622, "lng": 46.282, "pop": 1167315, "name": "Tabriz" }, "geometry": { "type": "Point", "coordinates": [ 46.282, 38.0622 ] } },
{ "type": "Feature", "properties": { "lat": 25.009, "lng": 121.43, "pop": 7391541, "name": "Taipei" }, "geometry": { "type": "Point", "coordinates": [ 121.43, 25.009 ] } },
{ "type": "Feature", "properties": { "lat": 22.6431, "lng": 120.321, "pop": 1666937, "name": "Kaohsiung" }, "geometry": { "type": "Point", "coordinates": [ 120.321, 22.6431 ] } },
{ "type": "Feature", "properties": { "lat": 48.1444, "lng": 11.5568, "pop": 1310694, "name": "Munich" }, "geometry": { "type": "Point", "coordinates": [ 11.5568, 48.1444 ] } },
{ "type": "Feature", "properties": { "lat": 25.3715, "lng": 68.3509, "pop": 1829292, "name": "Hyderabad" }, "geometry": { "type": "Point", "coordinates": [ 68.3509, 25.3715 ] } },
{ "type": "Feature", "properties": { "lat": 44.4289, "lng": 26.0989, "pop": 1693114, "name": "Bucharest" }, "geometry": { "type": "Point", "coordinates": [ 26.0989, 44.4289 ] } },
{ "type": "Feature", "properties": { "lat": 18.5441, "lng": -72.3127, "pop": 2507019, "name": "Port-au-Prince" }, "geometry": { "type": "Point", "coordinates": [ -72.3127, 18.5441 ] } },
{ "type": "Feature", "properties": { "lat": 40.4053, "lng": -3.70567, "pop": 3909271, "name": "Madrid" }, "geometry": { "type": "Point", "coordinates": [ -3.70567, 40.4053 ] } },
{ "type": "Feature", "properties": { "lat": 22.2638, "lng": 113.531, "pop": 1373039, "name": "Zhuhai" }, "geometry": { "type": "Point", "coordinates": [ 113.531, 22.2638 ] } },
{ "type": "Feature", "properties": { "lat": 28.9645, "lng": 77.681, "pop": 1699169, "name": "Meerut" }, "geometry": { "type": "Point", "coordinates": [ 77.681, 28.9645 ] } },
{ "type": "Feature", "properties": { "lat": 27.7997, "lng": 120.659, "pop": 1165687, "name": "Xinchengzhen" }, "geometry": { "type": "Point", "coordinates": [ 120.659, 27.7997 ] } },
{ "type": "Feature", "properties": { "lat": 52.5003, "lng": 13.4034, "pop": 2576379, "name": "Berlin" }, "geometry": { "type": "Point", "coordinates": [ 13.4034, 52.5003 ] } },
{ "type": "Feature", "properties": { "lat": 52.5003, "lng": -1.92974, "pop": 1137526, "name": "Birmingham" }, "geometry": { "type": "Point", "coordinates": [ -1.92974, 52.5003 ] } },
{ "type": "Feature", "properties": { "lat": 22.3091, "lng": 73.1821, "pop": 1561135, "name": "Vadovara" }, "geometry": { "type": "Point", "coordinates": [ 73.1821, 22.3091 ] } },
{ "type": "Feature", "properties": { "lat": 12.6227, "lng": -7.97585, "pop": 3433552, "name": "Bamako" }, "geometry": { "type": "Point", "coordinates": [ -7.97585, 12.6227 ] } },
{ "type": "Feature", "properties": { "lat": 31.8634, "lng": 117.272, "pop": 2872515, "name": "Hefei" }, "geometry": { "type": "Point", "coordinates": [ 117.272, 31.8634 ] } },
{ "type": "Feature", "properties": { "lat": 36.0655, "lng": 103.803, "pop": 2032248, "name": "Lanzhou" }, "geometry": { "type": "Point", "coordinates": [ 103.803, 36.0655 ] } },
{ "type": "Feature", "properties": { "lat": 34.018, "lng": -6.80832, "pop": 1331753, "name": "Rabat" }, "geometry": { "type": "Point", "coordinates": [ -6.80832, 34.018 ] } },
{ "type": "Feature", "properties": { "lat": 30.5608, "lng": 114.298, "pop": 6324589, "name": "Wuhan" }, "geometry": { "type": "Point", "coordinates": [ 114.298, 30.5608 ] } },
{ "type": "Feature", "properties": { "lat": 25.0428, "lng": 102.719, "pop": 2650318, "name": "Kunming" }, "geometry": { "type": "Point", "coordinates": [ 102.719, 25.0428 ] } },
{ "type": "Feature", "properties": { "lat": 23.8235, "lng": 90.3951, "pop": 20864280, "name": "Dhaka" }, "geometry": { "type": "Point", "coordinates": [ 90.3951, 23.8235 ] } },
{ "type": "Feature", "properties": { "lat": 23.2355, "lng": 116.481, "pop": 1408470, "name": "Chaonan" }, "geometry": { "type": "Point", "coordinates": [ 116.481, 23.2355 ] } },
{ "type": "Feature", "properties": { "lat": -1.26369, "lng": 36.8783, "pop": 4204631, "name": "Nairobi" }, "geometry": { "type": "Point", "coordinates": [ 36.8783, -1.26369 ] } },
{ "type": "Feature", "properties": { "lat": -30.0425, "lng": -51.1506, "pop": 1265902, "name": "Porto Alegre" }, "geometry": { "type": "Point", "coordinates": [ -51.1506, -30.0425 ] } },
{ "type": "Feature", "properties": { "lat": 37.4644, "lng": 126.945, "pop": 18677666, "name": "Seoul" }, "geometry": { "type": "Point", "coordinates": [ 126.945, 37.4644 ] } },
{ "type": "Feature", "properties": { "lat": 19.2081, "lng": 73.1731, "pop": 1875305, "name": "Kalyan" }, "geometry": { "type": "Point", "coordinates": [ 73.1731, 19.2081 ] } },
{ "type": "Feature", "properties": { "lat": -3.06535, "lng": -59.9909, "pop": 1657032, "name": "Manaus" }, "geometry": { "type": "Point", "coordinates": [ -59.9909, -3.06535 ] } },
{ "type": "Feature", "properties": { "lat": 33.5001, "lng": 36.3075, "pop": 2271478, "name": "Damascus" }, "geometry": { "type": "Point", "coordinates": [ 36.3075, 33.5001 ] } },
{ "type": "Feature", "properties": { "lat": 34.9726, "lng": 135.75, "pop": 1437231, "name": "Kyoto" }, "geometry": { "type": "Point", "coordinates": [ 135.75, 34.9726 ] } },
{ "type": "Feature", "properties": { "lat": 4.05165, "lng": 9.74278, "pop": 3423887, "name": "Douala" }, "geometry": { "type": "Point", "coordinates": [ 9.74278, 4.05165 ] } },
{ "type": "Feature", "properties": { "lat": 18.4953, "lng": -69.9179, "pop": 3292433, "name": "Santo Domingo" }, "geometry": { "type": "Point", "coordinates": [ -69.9179, 18.4953 ] } },
{ "type": "Feature", "properties": { "lat": 13.0631, "lng": 77.547, "pop": 11620062, "name": "Bangalore" }, "geometry": { "type": "Point", "coordinates": [ 77.547, 13.0631 ] } },
{ "type": "Feature", "properties": { "lat": 6.68858, "lng": -1.61196, "pop": 2592784, "name": "Kumasi" }, "geometry": { "type": "Point", "coordinates": [ -1.61196, 6.68858 ] } },
{ "type": "Feature", "properties": { "lat": 41.8872, "lng": -87.6967, "pop": 1970361, "name": "Chicago" }, "geometry": { "type": "Point", "coordinates": [ -87.6967, 41.8872 ] } },
{ "type": "Feature", "properties": { "lat": 31.4316, "lng": 73.0926, "pop": 3759692, "name": "Faisalabad" }, "geometry": { "type": "Point", "coordinates": [ 73.0926, 31.4316 ] } },
{ "type": "Feature", "properties": { "lat": 43.8689, "lng": 125.298, "pop": 2926622, "name": "Changchun" }, "geometry": { "type": "Point", "coordinates": [ 125.298, 43.8689 ] } },
{ "type": "Feature", "properties": { "lat": 31.9887, "lng": 35.9532, "pop": 3836812, "name": "Amman" }, "geometry": { "type": "Point", "coordinates": [ 35.9532, 31.9887 ] } },
{ "type": "Feature", "properties": { "lat": -8.05023, "lng": -34.9219, "pop": 3081037, "name": "Recife" }, "geometry": { "type": "Point", "coordinates": [ -34.9219, -8.05023 ] } },
{ "type": "Feature", "properties": { "lat": 22.7905, "lng": 86.2084, "pop": 1323671, "name": "Jamshedpur" }, "geometry": { "type": "Point", "coordinates": [ 86.2084, 22.7905 ] } },
{ "type": "Feature", "properties": { "lat": 17.6969, "lng": 83.2405, "pop": 1155081, "name": "Visakhapatnam" }, "geometry": { "type": "Point", "coordinates": [ 83.2405, 17.6969 ] } },
{ "type": "Feature", "properties": { "lat": 33.9974, "lng": -118.271, "pop": 2644688, "name": "Los Angeles" }, "geometry": { "type": "Point", "coordinates": [ -118.271, 33.9974 ] } },
{ "type": "Feature", "properties": { "lat": -2.5468, "lng": -44.2355, "pop": 1055327, "name": "Sao Luis" }, "geometry": { "type": "Point", "coordinates": [ -44.2355, -2.5468 ] } },
{ "type": "Feature", "properties": { "lat": 50.8439, "lng": 4.35782, "pop": 1098050, "name": "Brussels" }, "geometry": { "type": "Point", "coordinates": [ 4.35782, 50.8439 ] } },
{ "type": "Feature", "properties": { "lat": 23.3847, "lng": 116.677, "pop": 1046895, "name": "Shantou" }, "geometry": { "type": "Point", "coordinates": [ 116.677, 23.3847 ] } },
{ "type": "Feature", "properties": { "lat": 26.8381, "lng": 80.9407, "pop": 3336182, "name": "Lucknow" }, "geometry": { "type": "Point", "coordinates": [ 80.9407, 26.8381 ] } },
{ "type": "Feature", "properties": { "lat": 10.3057, "lng": 123.91, "pop": 2282762, "name": "Cebu" }, "geometry": { "type": "Point", "coordinates": [ 123.91, 10.3057 ] } },
{ "type": "Feature", "properties": { "lat": 24.8418, "lng": 118.587, "pop": 2061857, "name": "Quanzhou" }, "geometry": { "type": "Point", "coordinates": [ 118.587, 24.8418 ] } },
{ "type": "Feature", "properties": { "lat": 24.4879, "lng": 118.105, "pop": 2164989, "name": "Xiamen" }, "geometry": { "type": "Point", "coordinates": [ 118.105, 24.4879 ] } },
{ "type": "Feature", "properties": { "lat": 19.0436, "lng": -98.2042, "pop": 1392854, "name": "Puebla" }, "geometry": { "type": "Point", "coordinates": [ -98.2042, 19.0436 ] } },
{ "type": "Feature", "properties": { "lat": 36.2097, "lng": 37.1543, "pop": 1747615, "name": "Aleppo" }, "geometry": { "type": "Point", "coordinates": [ 37.1543, 36.2097 ] } },
{ "type": "Feature", "properties": { "lat": 10.6459, "lng": -71.6463, "pop": 1636309, "name": "Maracaibo" }, "geometry": { "type": "Point", "coordinates": [ -71.6463, 10.6459 ] } },
{ "type": "Feature", "properties": { "lat": -12.0301, "lng": -77.011, "pop": 9317891, "name": "Lima" }, "geometry": { "type": "Point", "coordinates": [ -77.011, -12.0301 ] } },
{ "type": "Feature", "properties": { "lat": 26.0711, "lng": 119.309, "pop": 2659226, "name": "Fuzhou" }, "geometry": { "type": "Point", "coordinates": [ 119.309, 26.0711 ] } },
{ "type": "Feature", "properties": { "lat": 37.8421, "lng": 112.549, "pop": 3189244, "name": "Taiyuan" }, "geometry": { "type": "Point", "coordinates": [ 112.549, 37.8421 ] } },
{ "type": "Feature", "properties": { "lat": 38.9394, "lng": 121.555, "pop": 2419133, "name": "Dalian" }, "geometry": { "type": "Point", "coordinates": [ 121.555, 38.9394 ] } },
{ "type": "Feature", "properties": { "lat": 38.7661, "lng": -9.19162, "pop": 1200018, "name": "Lisbon" }, "geometry": { "type": "Point", "coordinates": [ -9.19162, 38.7661 ] } },
{ "type": "Feature", "properties": { "lat": 30.6573, "lng": 104.032, "pop": 6699640, "name": "Chengdu" }, "geometry": { "type": "Point", "coordinates": [ 104.032, 30.6573 ] } },
{ "type": "Feature", "properties": { "lat": 39.9915, "lng": -75.1564, "pop": 1015875, "name": "Philadelphia" }, "geometry": { "type": "Point", "coordinates": [ -75.1564, 39.9915 ] } },
{ "type": "Feature", "properties": { "lat": 43.8541, "lng": 126.551, "pop": 1133092, "name": "Jilin" }, "geometry": { "type": "Point", "coordinates": [ 126.551, 43.8541 ] } },
{ "type": "Feature", "properties": { "lat": 5.58263, "lng": -0.194669, "pop": 2165338, "name": "Accra" }, "geometry": { "type": "Point", "coordinates": [ -0.194669, 5.58263 ] } },
{ "type": "Feature", "properties": { "lat": 6.88941, "lng": 79.9025, "pop": 1986417, "name": "Colombo" }, "geometry": { "type": "Point", "coordinates": [ 79.9025, 6.88941 ] } },
{ "type": "Feature", "properties": { "lat": 22.3254, "lng": 114.183, "pop": 3546066, "name": "Hong Kong" }, "geometry": { "type": "Point", "coordinates": [ 114.183, 22.3254 ] } },
{ "type": "Feature", "properties": { "lat": 32.0546, "lng": 118.785, "pop": 4686608, "name": "Nanjing" }, "geometry": { "type": "Point", "coordinates": [ 118.785, 32.0546 ] } },
{ "type": "Feature", "properties": { "lat": -22.8361, "lng": -43.0328, "pop": 1276653, "name": "Sao Gon√ßalo" }, "geometry": { "type": "Point", "coordinates": [ -43.0328, -22.8361 ] } },
{ "type": "Feature", "properties": { "lat": 35.8666, "lng": 128.592, "pop": 1849482, "name": "Daegu" }, "geometry": { "type": "Point", "coordinates": [ 128.592, 35.8666 ] } },
{ "type": "Feature", "properties": { "lat": 21.5393, "lng": 39.223, "pop": 1510241, "name": "Jeddah" }, "geometry": { "type": "Point", "coordinates": [ 39.223, 21.5393 ] } },
{ "type": "Feature", "properties": { "lat": 9.68631, "lng": -13.5336, "pop": 2459175, "name": "Conakry" }, "geometry": { "type": "Point", "coordinates": [ -13.5336, 9.68631 ] } },
{ "type": "Feature", "properties": { "lat": 43.8274, "lng": 87.5789, "pop": 2683138, "name": "Urumqi" }, "geometry": { "type": "Point", "coordinates": [ 87.5789, 43.8274 ] } },
{ "type": "Feature", "properties": { "lat": 28.0032, "lng": 120.646, "pop": 2699669, "name": "Wenzhou" }, "geometry": { "type": "Point", "coordinates": [ 120.646, 28.0032 ] } },
{ "type": "Feature", "properties": { "lat": 23.0076, "lng": 72.6016, "pop": 6545765, "name": "Ahmedabad" }, "geometry": { "type": "Point", "coordinates": [ 72.6016, 23.0076 ] } },
{ "type": "Feature", "properties": { "lat": 16.52, "lng": 80.6452, "pop": 1150392, "name": "Vijayawada" }, "geometry": { "type": "Point", "coordinates": [ 80.6452, 16.52 ] } },
{ "type": "Feature", "properties": { "lat": 10.5077, "lng": 7.43801, "pop": 1038445, "name": "Kaduna" }, "geometry": { "type": "Point", "coordinates": [ 7.43801, 10.5077 ] } },
{ "type": "Feature", "properties": { "lat": 34.5245, "lng": 69.1561, "pop": 4127925, "name": "Kabul" }, "geometry": { "type": "Point", "coordinates": [ 69.1561, 34.5245 ] } },
{ "type": "Feature", "properties": { "lat": 25.5843, "lng": 85.1473, "pop": 2740061, "name": "Patna" }, "geometry": { "type": "Point", "coordinates": [ 85.1473, 25.5843 ] } },
{ "type": "Feature", "properties": { "lat": 13.7632, "lng": 100.555, "pop": 12039809, "name": "Bangkok" }, "geometry": { "type": "Point", "coordinates": [ 100.555, 13.7632 ] } },
{ "type": "Feature", "properties": { "lat": 15.3604, "lng": 44.2011, "pop": 2336939, "name": "Sana'a" }, "geometry": { "type": "Point", "coordinates": [ 44.2011, 15.3604 ] } },
{ "type": "Feature", "properties": { "lat": -7.34004, "lng": 112.712, "pop": 4071892, "name": "Surabaya" }, "geometry": { "type": "Point", "coordinates": [ 112.712, -7.34004 ] } },
{ "type": "Feature", "properties": { "lat": -7.01539, "lng": 110.426, "pop": 1493397, "name": "Semarang" }, "geometry": { "type": "Point", "coordinates": [ 110.426, -7.01539 ] } },
{ "type": "Feature", "properties": { "lat": 39.9335, "lng": 116.374, "pop": 12902756, "name": "Beijing" }, "geometry": { "type": "Point", "coordinates": [ 116.374, 39.9335 ] } },
{ "type": "Feature", "properties": { "lat": 31.2882, "lng": 120.59, "pop": 2412011, "name": "Suzhou" }, "geometry": { "type": "Point", "coordinates": [ 120.59, 31.2882 ] } },
{ "type": "Feature", "properties": { "lat": -16.6882, "lng": -49.2741, "pop": 1057900, "name": "Goiania" }, "geometry": { "type": "Point", "coordinates": [ -49.2741, -16.6882 ] } },
{ "type": "Feature", "properties": { "lat": 21.0161, "lng": 105.817, "pop": 3239499, "name": "Hanoi" }, "geometry": { "type": "Point", "coordinates": [ 105.817, 21.0161 ] } },
{ "type": "Feature", "properties": { "lat": 29.304, "lng": 47.9668, "pop": 2603047, "name": "Kuwait" }, "geometry": { "type": "Point", "coordinates": [ 47.9668, 29.304 ] } },
{ "type": "Feature", "properties": { "lat": 20.0033, "lng": 110.318, "pop": 1476352, "name": "Haikou" }, "geometry": { "type": "Point", "coordinates": [ 110.318, 20.0033 ] } },
{ "type": "Feature", "properties": { "lat": -23.5752, "lng": -46.6013, "pop": 17426861, "name": "Sao Paulo" }, "geometry": { "type": "Point", "coordinates": [ -46.6013, -23.5752 ] } },
{ "type": "Feature", "properties": { "lat": 41.0158, "lng": 28.9848, "pop": 15956170, "name": "Istanbul" }, "geometry": { "type": "Point", "coordinates": [ 28.9848, 41.0158 ] } },
{ "type": "Feature", "properties": { "lat": 2.05343, "lng": 45.3325, "pop": 1410234, "name": "Mogadishu" }, "geometry": { "type": "Point", "coordinates": [ 45.3325, 2.05343 ] } },
{ "type": "Feature", "properties": { "lat": 14.5354, "lng": 121.036, "pop": 19493804, "name": "Manila" }, "geometry": { "type": "Point", "coordinates": [ 121.036, 14.5354 ] } },
{ "type": "Feature", "properties": { "lat": 24.1537, "lng": 120.674, "pop": 1815663, "name": "Taichung" }, "geometry": { "type": "Point", "coordinates": [ 120.674, 24.1537 ] } },
{ "type": "Feature", "properties": { "lat": 14.7406, "lng": -17.396, "pop": 3356573, "name": "Dakar" }, "geometry": { "type": "Point", "coordinates": [ -17.396, 14.7406 ] } },
{ "type": "Feature", "properties": { "lat": 30.9001, "lng": 75.9013, "pop": 1088725, "name": "Ludhiana" }, "geometry": { "type": "Point", "coordinates": [ 75.9013, 30.9001 ] } },
{ "type": "Feature", "properties": { "lat": -22.8355, "lng": -43.3433, "pop": 6290335, "name": "Rio de Janeiro" }, "geometry": { "type": "Point", "coordinates": [ -43.3433, -22.8355 ] } },
{ "type": "Feature", "properties": { "lat": 39.1355, "lng": 117.204, "pop": 5614393, "name": "Tianjin" }, "geometry": { "type": "Point", "coordinates": [ 117.204, 39.1355 ] } }
]
}
