lat,lng,pop,name
55.6783,12.5585,1146845,Copenhagen
36.3131,59.5757,2585297,Mashhad
10.8513,106.707,7250029,Ho Chi Minh City
-25.8633,32.5557,2066412,Maputo
9.94005,-84.0742,1115157,San José
1.35215,103.835,5335379,Singapore
18.0814,-15.9715,1173484,Nouakchott
26.5646,106.708,2040019,Guiyang
45.5086,9.18371,1867192,Milan
19.1424,72.899,16847859,Mumbai
15.6133,32.5088,5201868,Khartoum
40.4096,49.868,1500412,Baku
-34.6834,-58.4753,10708578,Buenos Aires
22.813,108.308,2234793,Nanning
18.5411,73.8686,5698518,Pune
10.9488,-74.7968,1841228,Barranquilla
28.6044,77.1997,25517665,Delhi
21.14,79.0589,2576577,Nagpur
-33.4857,-70.6567,5737466,Santiago
25.4388,81.8111,1648625,Allahabad
9.92176,78.1085,1512548,Madurai
40.6513,109.848,1310890,Baotou
3.11368,101.663,4831734,Kuala Lumpur
-34.8652,-56.1714,1013113,Montevideo
36.6195,101.772,1015203,Xining
-2.15646,-79.9176,3688996,Guayaquil
-20.2898,-40.3194,1206722,Vitória
20.6416,-103.354,3982725,Guadalajara
36.6526,116.997,2575863,Jinan
-6.12065,23.5928,3186976,Mbuji-Mayi
0.497731,29.4643,1544123,Beni
6.07623,6.88523,1414847,Onitsha
34.2336,108.944,4229098,Xi'an
-12.9292,-38.4412,2839166,Salvador da Bahia
32.6682,51.6489,1641197,Isfahan
25.2508,51.4691,1365360,Doha
51.5109,-0.12912,7704754,London
32.5031,-116.967,1230031,Tijuana
-4.24618,15.271,1607143,Brazzaville
23.0769,-82.3559,1147564,Havana
-4.39233,15.3293,5339553,Kinshasa
33.3379,44.4003,3823771,Baghdad
23.3827,85.3291,1006337,Ranchi
34.6918,135.463,9505885,Osaka
-15.8523,-48.0886,1148598,Brasilia
23.3127,116.263,1472473,Puning
31.5697,120.291,2186842,Wuxi
34.6706,112.392,1109561,Luoyang
6.55684,3.2942,10899759,Lagos
6.19963,1.2027,2334757,Lome
24.9064,67.0715,13840989,Karachi
37.9293,58.3886,1426131,Asgabat
35.1662,126.864,1064922,Gwangju
6.30896,-10.7185,1435793,Monrovia
-0.208568,-78.5093,1861229,Quito
33.5848,-7.55036,3344456,Casablanca
27.6974,85.3333,2524383,Kathmandu
22.9992,113.238,13947868,Guangzhou
59.9302,30.3396,4071781,Saint Petersburg
8.45699,-13.217,1321241,Freetown
21.1672,72.7225,5842435,Surat
28.8434,78.734,1085336,Moradabad
42.8724,74.5879,1057008,Bishkek
11.5459,104.891,1666251,Phnom Penh
-2.98878,104.757,1142867,Palembang
55.7369,37.6095,11586759,Moscow
40.8234,111.662,1686488,Hohhot
36.8218,10.1755,1646418,Tunis
33.878,35.5432,2712065,Beirut
43.7176,-79.3659,1595018,Toronto
34.0274,-5.0052,1107633,Fez
23.2431,77.4299,1300496,Bhopal
9.00604,38.7583,3411638,Addis Ababa
29.5452,106.508,3972131,Chongqing
35.1588,129.06,3277044,Busan
41.8003,123.382,4911748,Shenyang
28.3766,79.4272,1102308,Bareilly
48.2058,16.3705,1603466,Vienna
-1.38273,-48.4327,1890954,Belem
40.1985,29.0763,1211535,Bursa
22.9394,88.3864,1832995,Bhatpara
45.74,126.656,3505782,Harbin
21.1266,-101.666,1355343,León
33.9994,71.5501,1814301,Peshawar
25.7168,32.6558,2835075,Luxor
41.18,69.2619,2403726,Tashkent
-6.30209,106.815,28685193,Jakarta
40.9051,14.2501,1441868,Naples
31.3103,48.67,1046317,Ahwaz
21.9433,96.0939,1409526,Mandalay
23.6953,86.9003,2343898,Asansol
45.5306,-73.6141,1348473,Montreal
39.9517,32.8747,2044569,Ankara
40.0624,113.254,1279177,Datong
30.2975,120.176,3503553,Hangzhou
35.6577,139.651,27291599,Tokyo
49.9835,36.2629,1147047,Kharkov
-22.8989,-43.5549,1385847,Campo Grande
36.1116,120.382,2427745,Qingdao
-8.90372,13.3261,13376577,Luanda
-5.90254,22.4215,1066129,Kananga
31.7904,35.2011,1141619,Jerusalem
33.5773,130.401,1341500,Fukuoka
3.81448,11.5167,3880752,Yaoundé
28.6875,115.877,2435486,Nanchang
38.0388,114.493,2423166,Shijiazhuang
28.1863,112.986,2618133,Changsha
36.3468,127.387,1155065,Daejeon
25.7186,-100.261,3497485,Monterrey
22.8126,113.924,17857508,Dongguan-Shenzhen
30.1908,71.4654,2275456,Multan
29.9516,77.5829,1016304,Saharanpur
50.445,30.5153,2249718,Kiev
30.5617,47.769,1249470,Basrah
34.7669,113.66,3761748,Zhengzhou
19.4546,-99.1022,16584670,Mexico City
-25.4631,-49.253,1603010,Curitiba
39.029,125.743,2213080,Pyongyang
31.7661,119.945,1411298,Changzhou
-18.8854,47.5288,1951057,Antananarivo
-25.3227,-57.5512,1621555,Asunción
31.6239,-8.01608,1195239,Marrakesh
32.0677,34.8193,1627179,Tel Aviv
14.6022,-90.5508,1709487,Guatemala City
-15.4004,28.2863,2412938,Lusaka
-26.2477,27.8736,1190019,Johannesburg
41.3983,2.1547,2395199,Barcelona
36.7351,3.08052,2730876,Algiers
4.64153,-74.1173,8347832,Bogotá
30.06,31.2523,20249413,Cairo
6.37853,2.40193,1099923,Cotonou
22.3807,91.8116,3617017,Chittagong
31.4857,74.3167,9280035,Lahore
-6.84642,39.2322,3310833,Dar es Salaam
31.2076,121.442,18799640,Shanghai
24.6913,46.7308,2872523,Riyadh
31.0518,31.4326,1007204,Mansoura
3.60824,98.6488,2724541,Medan
12.3684,-1.53895,3110466,Ouagadougou
22.5523,88.3435,13191948,Kolkata
34.2628,117.16,1207325,Xuzhou
13.0364,80.1802,8983604,Chennai
22.691,75.8629,2315269,Indore
-19.8991,-43.996,3637067,Belo Horizonte
23.7726,86.4212,1169716,Dhanbad
-5.14383,119.46,1512877,Makassar
0.325829,32.5823,3160259,Kampala
38.4138,27.1506,2869652,Izmir
19.9822,73.7865,1025512,Nashik
-11.6563,27.4784,2781923,Lubumbashi
11.9832,8.52175,4006970,Kano
41.1114,122.989,1247032,Anshan
29.6049,52.5272,1110180,Shiraz
39.9528,32.5907,1283649,Sincan
33.5908,73.0625,2313095,Islamabad
37.9878,23.731,2867516,Athens
24.3151,109.386,1266228,Liuzhou
30.7129,76.7524,1327210,Chandigarh
17.4235,78.4785,7538711,Hyderabad
41.8916,12.5097,1907211,Roma
6.24414,-75.579,3274828,Medellín
31.2077,29.951,4604708,Alexandria
16.8639,96.1419,5075160,Yangon
43.0705,141.364,1246041,Sapporo
-6.95046,107.641,5497203,Bandung
7.08193,125.584,1008312,Davao
35.1529,136.929,2326546,Nagoya
-3.78129,-38.5594,2967863,Fortaleza
27.173,77.9962,2084543,Agra
5.36638,-4.03769,4353079,Abidjan
7.36722,3.92268,2761323,Ibadan
32.1376,74.1863,2287680,Lahore
53.8905,27.5844,2203216,Minsk
40.7351,-73.9149,8032208,New York
29.8405,121.542,1432769,Ningbo
10.4758,-66.8952,2508634,Caracas
25.9008,-100.146,2279397,Monterrey
48.87,2.35571,6834162,Paris
35.7092,51.2563,11184692,Tehran
26.4494,80.3142,2557537,Kampur
13.5229,2.12342,1001555,Niamey
35.6925,-0.600622,1148692,Oran
-33.9979,18.5955,1824398,Cape Town
3.42781,-76.5148,2224704,Cali
38.0622,46.282,1167315,Tabriz
25.009,121.43,7391541,Taipei
22.6431,120.321,1666937,Kaohsiung
48.1444,11.5568,1310694,Munich
25.3715,68.3509,1829292,Hyderabad
44.4289,26.0989,1693114,Bucharest
18.5441,-72.3127,2507019,Port-au-Prince
40.4053,-3.70567,3909271,Madrid
22.2638,113.531,1373039,Zhuhai
28.9645,77.681,1699169,Meerut
27.7997,120.659,1165687,Xinchengzhen
52.5003,13.4034,2576379,Berlin
52.5003,-1.92974,1137526,Birmingham
22.3091,73.1821,1561135,Vadovara
12.6227,-7.97585,3433552,Bamako
31.8634,117.272,2872515,Hefei
36.0655,103.803,2032248,Lanzhou
34.018,-6.80832,1331753,Rabat
30.5608,114.298,6324589,Wuhan
25.0428,102.719,2650318,Kunming
23.8235,90.3951,20864280,Dhaka
23.2355,116.481,1408470,Chaonan
-1.26369,36.8783,4204631,Nairobi
-30.0425,-51.1506,1265902,Porto Alegre
37.4644,126.945,18677666,Seoul
19.2081,73.1731,1875305,Kalyan
-3.06535,-59.9909,1657032,Manaus
33.5001,36.3075,2271478,Damascus
34.9726,135.75,1437231,Kyoto
4.05165,9.74278,3423887,Douala
18.4953,-69.9179,3292433,Santo Domingo
13.0631,77.547,11620062,Bangalore
6.68858,-1.61196,2592784,Kumasi
41.8872,-87.6967,1970361,Chicago
31.4316,73.0926,3759692,Faisalabad
43.8689,125.298,2926622,Changchun
31.9887,35.9532,3836812,Amman
-8.05023,-34.9219,3081037,Recife
22.7905,86.2084,1323671,Jamshedpur
17.6969,83.2405,1155081,Visakhapatnam
33.9974,-118.271,2644688,Los Angeles
-2.5468,-44.2355,1055327,São Luis
50.8439,4.35782,1098050,Brussels
23.3847,116.677,1046895,Shantou
26.8381,80.9407,3336182,Lucknow
10.3057,123.91,2282762,Cebu
24.8418,118.587,2061857,Quanzhou
24.4879,118.105,2164989,Xiamen
19.0436,-98.2042,1392854,Puebla
36.2097,37.1543,1747615,Aleppo
10.6459,-71.6463,1636309,Maracaibo
-12.0301,-77.011,9317891,Lima
26.0711,119.309,2659226,Fuzhou
37.8421,112.549,3189244,Taiyuan
38.9394,121.555,2419133,Dalian
38.7661,-9.19162,1200018,Lisbon
30.6573,104.032,6699640,Chengdu
39.9915,-75.1564,1015875,Philadelphia
43.8541,126.551,1133092,Jilin
5.58263,-0.194669,2165338,Accra
6.88941,79.9025,1986417,Colombo
22.3254,114.183,3546066,Hong Kong
32.0546,118.785,4686608,Nanjing
-22.8361,-43.0328,1276653,São Gonçalo
35.8666,128.592,1849482,Daegu
21.5393,39.223,1510241,Jeddah
9.68631,-13.5336,2459175,Conakry
43.8274,87.5789,2683138,Ürümqi
28.0032,120.646,2699669,Wenzhou
23.0076,72.6016,6545765,Ahmedabad
16.52,80.6452,1150392,Vijayawada
10.5077,7.43801,1038445,Kaduna
34.5245,69.1561,4127925,Kabul
25.5843,85.1473,2740061,Patna
13.7632,100.555,12039809,Bangkok
15.3604,44.2011,2336939,Sana'a
-7.34004,112.712,4071892,Surabaya
-7.01539,110.426,1493397,Semarang
39.9335,116.374,12902756,Beijing
31.2882,120.59,2412011,Suzhou
-16.6882,-49.2741,1057900,Goiânia
21.0161,105.817,3239499,Hanoi
29.304,47.9668,2603047,Kuwait
20.0033,110.318,1476352,Haikou
-23.5752,-46.6013,17426861,São Paulo
41.0158,28.9848,15956170,Istanbul
2.05343,45.3325,1410234,Mogadishu
14.5354,121.036,19493804,Manila
24.1537,120.674,1815663,Taichung
14.7406,-17.396,3356573,Dakar
30.9001,75.9013,1088725,Ludhiana
-22.8355,-43.3433,6290335,Rio de Janeiro
39.1355,117.204,5614393,Tianjin